,address,longitude,latitude
0,"74 Indian Village Trail, Bastian, Va 24314",-81.1388462,37.1770259
1,"4019 South Capitol Street Southwest, Washington, Dc 20032",-77.0081224,38.8307799
2,"2303 Soapstone Drive, Suite C, Reston, Va 20191",-77.345938,38.9308041
3,"4401 South Capitol Street Southwest, Washington, Dc 20032",-77.0073482,38.8260479
4,"7 North King Street, Leesburg, Va 20176",-77.564587,39.1156906
5,"1613 Montello Avenue Northeast, Washington, Dc 20002",-76.9866201,38.9073724
6,"3145 Campbell Avenue, Lynchburg, Va 24501",-79.144786,37.387894
7,"717 D Street Northwest, Washington, Dc 20004",-77.0227527,38.8950116
8,"3216 Old Forest Road, Lynchburg, Va 24501",-79.211757,37.413642
9,"814 Bladensburg Road Northeast, Washington, Dc 20002",-76.983119,38.901137
10,"3960 Salem Lakes Boulevard, Virginia Beach, Va 23456",-76.1209649,36.7751178
11,"1535 Kenilworth Avenue Northeast, Washington, Dc 20019",-76.935059,38.910389
12,"2854 Wilson Boulevard, Arlington, Va 22201",-77.0928957,38.8886216
13,"4321 Nannie Helen Burroughs Avenue Northeast, Washington, Dc 20019",-76.9425831,38.9018472
14,"1039 Fairfax Pike, Stephens City, Va 22655",-78.1791779,39.077203
15,"4239 9th Street Northwest, Washington, Dc 20011",-77.0250925,38.9427182
16,"26036 Cox Road, Petersburg, Va 23803",-77.4551187,37.2153348
17,"3011 Martin Luther King Junior Avenue Southeast, Washington, Dc 20032",-76.998349,38.844467
18,"760 Warrior Drive, Stephens City, Va 22655",-78.1776568,39.0923403
19,"4682 Martin Luther King Junior Avenue Southwest, Washington, Dc 20032",-77.010447,38.821247
20,"8870 South Scenic Highway, Bland, Va 24315",-81.1173399,37.1015873
21,"2850 Bladensburg Road Northeast, Washington, Dc 20018",-76.9634142,38.9272049
22,"25722 Cox Road, Petersburg, Va 23803",-77.4597122,37.2144176
23,"333 Hawaii Avenue Northeast, Washington, Dc 20011",-77.0008688,38.9411471
24,"1535 River Road West, Crozier, Va 23039",-77.79723,37.636837
25,"7719 Georgia Avenue North West, Washington, Dc 20012",-77.0265541,38.983312
26,"22920 Us Highway 29, Chatham, Va 24531",-79.390531,36.90086
27,"3845 Minnesota Avenue Northeast, Washington, Dc 20019",-76.9503302,38.8929847
28,"8229 Boone Boulevard, Vienna, Va 22182",-77.2310587,38.915409
29,"3943 Minnesota Avenue Northeast, Washington, Dc 20019",-76.949163,38.8947829
30,"328 Rives Rd, Petersburg, Va 23805",-77.3531167,37.1752671
31,"1739 New Jersey Avenue Northwest, Washington, Dc 20001",-77.0174059,38.9135225
32,"42244 East Morgan Avenue, Pennington Gap, Va 24277",-83.0368365,36.7535275
33,"5577 Central Avenue Southeast, Washington, Dc 20019",-76.919149,38.885563
34,"12643 Orby Cantrell Highway, Pound, Va 24279",-82.6321133,37.1546837
35,"4520 Benning Road Southeast, Washington, Dc 20019",-76.9372097,38.8890222
36,"11701 Central Street, Coeburn, Va 24230",-82.4806343,36.9343343
37,"3938 Minnesota Avenue Northeast, Washington, Dc 20019",-76.9502801,38.8942451
38,"7947 Main Street, Middletown, Va 22645",-78.2812342,39.0270496
39,"3710 Minnesota Avenue Northeast, Washington, Dc 20019",-76.9526448,38.8909198
40,"32441 Wilderness Rd, Ste 101, Jonesville, Va 24263",-83.1279982,36.6841214
41,"1108 Montello Avenue Northeast, Washington, Dc 20002",-76.9901432,38.9031043
42,"27262 Wilderness Road, Suite 101, Jonesville, Va 24263",-83.2140388,36.6773141
43,"5120 Nannie Helen Burroughs Avenue Northeast, Washington, Dc 20019",-76.9262565,38.8985681
44,"6500 Whaleyville Boulevard, Suffolk, Va 23438",-76.684871,36.587885
45,"3542 East Capitol Street Northeast, Washington, Dc 20019",-76.9540398,38.8898417
46,"4300 Colley Avenue, Norfolk, Va 23508",-76.2948595,36.883648
47,"2917 Martin Luther King Junior Avenue Southeast, Washington, Dc 20032",-76.997242,38.845882
48,"7 North King Street, Leesburg, Va 20176",-77.564587,39.1156906
49,"1807 West Virginia Avenue Northeast, Washington, Dc 20002",-76.9849026,38.9105727
50,"61 Catoctin Circle Northeast, Leesburg, Va 20176",-77.552909,39.1114269
51,"2300 Pennsylvania Avenue Southeast, Washington, Dc 20020",-76.9719818,38.8745181
52,"801 Independence Boulevard, Virginia Beach, Va 23455",-76.1330218,36.8660571
53,"1765 New York Avenue Northeast, Washington, Dc 20002",-76.9790645,38.9168206
54,"1778 East Little Creek Road, Norfolk, Va 23518",-76.2267275,36.9168994
55,"3830 Minnesota Avenue Northeast, Washington, Dc 20019",-76.9511969,38.8929506
56,"1720 East Little Creek Road, Norfolk, Va 23518",-76.2281351,36.9183228
57,"1322 Florida Avenue Northeast, Washington, Dc 20002",-76.9874289,38.9017874
58,"2475 East Little Creek Road, Norfolk, Va 23518",-76.2122733,36.9149227
59,"1508 Benning Road Northeast, Washington, Dc 20002",-76.983102,38.9001692
60,"6691 Maddox Boulevard, Chincoteague Island, Va 23336",-75.3560863,37.928046
61,"1100 4th Street Southwest, Washington, Dc 20024",-77.0172102,38.8776475
62,"506 Main Street, Front Royal, Va 22630",-78.202454,38.921511
63,"1350 Brentwood Road Northeast, Washington, Dc 20018",-76.9863082,38.9248451
64,"5021 Lee Highway, Warrenton, Va 20187",-77.709103,38.767399
65,"1301 Bladensburg Road Northeast, Washington, Dc 20002",-76.978236,38.907527
66,"23035 Douglas Court, Sterling, Va 20166",-77.4156406,38.9785491
67,"1804 D Street Northeast, Washington, Dc 20002",-76.9787373,38.894975
68,"2225 Florida Avenue, Lynchburg, Va 24501",-79.1339647,37.3828104
69,"1303 Good Hope Road Southeast, Washington, Dc 20020",-76.9868043,38.8669048
70,"2009 12th Street, Lynchburg, Va 24501",-79.157977,37.402671
71,"4514 Benning Road Southeast, Washington, Dc 20019",-76.937406,38.8894633
72,"3145 Campbell Avenue, Lynchburg, Va 24501",-79.144786,37.387894
73,"2924 Minnesota Avenue Southeast #b, Washington, Dc 20019",-76.965538,38.876362
74,"7029 Columbia Pike, Annandale, Va 22003",-77.1884515,38.8330847
75,"2651 Benning Road Northeast, Washington, Dc 20002",-76.969555,38.8976113
76,"14865 Wards Road, Lynchburg, Va 24501",-79.1717831,37.2972184
77,"501 4th Street South East, Washington, Dc 20003",-77.0008238,38.8830908
78,"3216 Old Forest Road, Lynchburg, Va 24501",-79.211757,37.413642
79,"1329 Kenilworth Avenue Northeast, Washington, Dc 20019",-76.9373504,38.908232
80,"5792 Northampton Boulevard, Virginia Beach, Va 23455",-76.1861622,36.883383
81,"4616 14th Street Northwest, Washington, Dc 20011",-77.0329622,38.9466718
82,"8289 Sudley Road, Manassas, Va 20109",-77.5039649,38.776547
83,"4201 Massachusetts Avenue Northwest, Suite #1, Washington, Dc 20016",-77.0822298,38.9359389
84,"12080 Glade Drive, Reston, Va 20191",-77.363348,38.9353658
85,"4501 14th Street Northwest, Washington, Dc 20011",-77.032352,38.945299
86,"2303 Soapstone Drive, Suite C, Reston, Va 20191",-77.345938,38.9308041
87,"3614 Georgia Avenue Northwest, Washington, Dc 20010",-77.0245467,38.9346167
88,"1901 Euclid Avenue, Bristol, Va 24201",-82.2034273,36.5985747
89,"3825 Alabama Avenue Southeast, Washington, Dc 20020",-76.950427,38.865697
90,"347 Sheffey School Road, Max Meadows, Va 24360",-80.9842484,36.8895768
91,"4000 Wisconsin Avenue Northwest, Washington, Dc 20016",-77.077104,38.9417038
92,"1581 General Booth Boulevard, Suite 116, Virginia Beach, Va 23454",-76.0013574,36.7869685
93,"1855 Wisconsin Avenue Northwest, Washington, Dc 20007",-77.0672614,38.9161787
94,"14808 Build America Drive, Woodbridge, Va 22191",-77.272344,38.631977
95,"1739 New Jersey Avenue Northwest, Washington, Dc 20001",-77.0174059,38.9135225
96,"6110 North Military Highway, Norfolk, Va 23518",-76.2231999,36.8951901
97,"2715 Pennsylvania Avenue Northwest, Washington, Dc 20007",-77.0564815,38.9050177
98,"1286 East Lee Highway, Wytheville, Va 24382",-80.9939768,36.9384451
99,"2210 Bladensburg Road Northeast, Washington, Dc 20018",-76.9706034,38.9200871
100,"3114 10th St North, Arlington, Va 22201",-77.095399,38.8842384
101,"2725 Bladensburg Road Northeast, Washington, Dc 20018",-76.9652227,38.9248593
102,"2544 Bainbridge Boulevard, Chesapeake, Va 23324",-76.2778037,36.7995243
103,"400 East Capitol Street Northeast, Washington, Dc 20003",-77.00037,38.890097
104,"2020 North 14th Street North, Arlington, Va 22201",-77.0832101,38.8894372
105,"3710 Minnesota Avenue Northeast, Washington, Dc 20019",-76.9526448,38.8909198
106,"302 Tyler Avenue, Radford, Va 24141",-80.553584,37.1386796
107,"2310 Rhode Island Avenue Northeast, Washington, Dc 20018",-76.973105,38.93083
108,"2115 Bainbridge Boulevard, Chesapeake, Va 23324",-76.2757995,36.8048013
109,"3001 Sherman Avenue Northwest, Washington, Dc 20001",-77.0257919,38.9279796
110,"655 Gate City Highway, Bristol, Va 24201",-82.2177166,36.6008263
111,"1401 6th Street Northwest, Washington, Dc 20001",-77.0196722,38.9087342
112,"4040 Electric Road, Roanoke, Va 24018",-79.9829991,37.2247399
113,"1117 10th Street Commercial Unit, Washington, Dc 20001",-77.0190228,38.912068
114,"224 Battlefield Boulevard South, Chesapeake, Va 23322",-76.2394926,36.7165124
115,"2917 Martin Luther King Junior Avenue Southeast, Washington, Dc 20032",-76.997242,38.845882
116,"4933 Grandin Road Southwest, Roanoke, Va 24018",-80.0306168,37.2465603
117,"2918 Martin Luther King Jr Avenue South East, Washington, Dc 20032",-76.996803,38.845445
118,"19806 Benhams Road, Bristol, Va 24202",-82.1783273,36.665588
119,"1803 Columbia Road Northwest, Washington, Dc 20009",-77.0431025,38.9226198
120,"2444 Cedar Road, Chesapeake, Va 23323",-76.324845,36.726669
121,"1199 Vermont Avenue Northwest, Washington, Dc 20005",-77.0321817,38.9043948
122,"2448 Chesapeake Square Ring Road, Chesapeake, Va 23321",-76.418138,36.8298883
123,"1322 14th Street Northwest, Washington, Dc 20005",-77.0323207,38.9080512
124,"8870 South Scenic Highway, Bland, Va 24315",-81.1173399,37.1015873
125,"1414 14th Street Northwest, Washington, Dc 20005",-77.0323308,38.9093957
126,"9230 Quioccasin Road, Henrico, Va 23229",-77.5770913,37.6071214
127,"2529 Pennsylvania Avenue Southeast, Washington, Dc 20020",-76.9703214,38.8728729
128,"19503 James Monroe Highway, Leesburg, Va 20175",-77.606146,39.078511
129,"710 H Street Northeast, Washington, Dc 20002",-76.9956102,38.9004223
130,"7600 Granby Street, Norfolk, Va 23505",-76.2722931,36.9150468
131,"3041 Naylor Road South East, Washington, Dc 20020",-76.9645105,38.8533112
132,"8594 Tidewater Drive, Norfolk, Va 23503",-76.253129,36.932566
133,"5247 Wisconsin Avenue, Northwest, Washington, Dc 20015",-77.0843537,38.958738
134,"7501 Tidewater Dirve, Norfolk, Va 23505",-76.2554649,36.9125403
135,"1535 U Street Southeast, Washington, Dc 20020",-76.9823409,38.8652029
136,"7297 West Lee Highway, Atkins, Va 24311",-81.3729697,36.8861571
137,"2200 16th Street Southeast, Washington, Dc 20020",-76.982405,38.863452
138,"1535 River Road West, Crozier, Va 23039",-77.79723,37.636837
139,"2544 Virginia Avenue Northwest, Washington, Dc 20037",-77.0543508,38.8993503
140,"6963 Richmond Highway, Lynchburg, Va 24504",-79.0650507,37.3856763
141,"2150 M Street Northwest, Washington, Dc 20037",-77.0485684,38.9050754
142,"640 Elden Street, Herndon, Va 20170",-77.3819703,38.9695098
143,"1748 7th Street Northwest, Washington, Dc 20001",-77.0221867,38.9139329
144,"5636 Princess Anne Road, Virginia Beach, Va 23462",-76.1813808,36.8398296
145,"2200 P Street Northwest, Washington, Dc 20037",-77.0489433,38.9094638
146,"239 Us Highway 23 South, Weber City, Va 24290",-82.5699072,36.6037065
147,"2918 Martin Luther King Jr Avenue South East, Washington, Dc 20032",-76.996803,38.845445
148,"2198 John Wayland Highway, Harrisonburg, Va 22801",-78.9103361,38.4304394
149,"1508 Benning Road Northeast, Washington, Dc 20002",-76.983102,38.9001692
150,"1423 Chain Bridge Road, Mclean, Va 22101",-77.1773175,38.9337254
151,"2651 Benning Road Northeast, Washington, Dc 20002",-76.969555,38.8976113
152,"13246 Gateway Center Drive, Gainesville, Va 20155",-77.60606,38.7966884
153,"4321 Nannie Helen Burroughs Avenue Northeast, Washington, Dc 20019",-76.9425831,38.9018472
154,"1751 Virginia Avenue, Harrisonburg, Va 22802",-78.8718119,38.480911
155,"1245 5th Street Nw, Washington, Dc 20001",-77.0187099,38.9071103
156,"1005 North Glebe Road, Suite 150, Arlington, Va 22201",-77.115557,38.8830583
157,"323 Pennsylvania Avenue Southeast, Washington, Dc 20003",-77.0013205,38.8864267
158,"3920 Robinson Tract Road, Pulaski, Va 24301",-80.7829437,37.07991
159,"2012 P Street Northwest, Washington, Dc 20036",-77.0454844,38.9094308
160,"3275 South Main Street, Harrisonburg, Va 22801",-78.9091854,38.4061031
161,"1772 Columbia Road Northwest, Washington, Dc 20009",-77.0411421,38.923418
162,"4472 Straightstone Road, Long Island, Va 24569",-79.1486772,37.0161474
163,"5633 Pittsville Road, Pittsville, Va 24139",-79.466527,36.982036
164,"22920 Us Highway 29, Chatham, Va 24531",-79.390531,36.90086
165,"3740 Grit Road, Hurt, Va 24563",-79.250962,37.071049
166,"5912 U S Highway 29, Blairs, Va 24527",-79.366754,36.691148
167,"901 East Fincastle Turnpike, Tazewell, Va 24651",-81.4933078,37.1304402
168,"18898 Us Highway 58, Castlewood, Va 24224",-82.2999586,36.8733633
169,"5033 Richmond Tappahannock Highway, Aylett, Va 23009",-77.1341961,37.7450832
170,"1005 Fincastle Turnpike, Tazewell, Va 24651",-81.5285479,37.1149444
171,"4300 Indian River Road, Chesapeake, Va 23325",-76.2256839,36.8211659
172,"2883 Highway 903, Bracey, Va 23919",-78.0087529,36.5779868
173,"4009 Cedar Lane, Portsmouth, Va 23703",-76.3773087,36.876905
174,"447 Cleburne Boulevard, Dublin, Va 24084",-80.6973887,37.0719984
175,"38842 Highway 58, La Crosse, Va 23950",-78.0955453,36.7016475
176,"526 Fort Evans Road, Leesburg, Va 20176",-77.5287126,39.1064805
177,"1449 Battlefield Boulevard North, Chesapeake, Va 23320",-76.2516132,36.7689671
178,"104 West Market Street, Leesburg, Va 20176",-77.5662998,39.1160947
179,"4933 Cleveland Street, Virginia Beach, Va 23462",-76.1472069,36.8405836
180,"1008 Great Bridge Boulevard, Chesapeake, Va 23320",-76.2723608,36.7550612
181,"1039 Fairfax Pike, Stephens City, Va 22655",-78.1791779,39.077203
182,"152 Fairfax Pike, Stephens City, Va 22655",-78.2120081,39.0804357
183,"760 Warrior Drive, Stephens City, Va 22655",-78.1776568,39.0923403
184,"3007 Mountain Road, Glen Allen, Va 23060",-77.5060456,37.6657184
185,"8800 Highway 15, Clarksville, Va 23927",-78.539942,36.6349509
186,"1328 Kempsville Road, Chesapeake, Va 23320",-76.203033,36.7624489
187,"613 Frost Avenue, Warrenton, Va 20186",-77.8124895,38.7166005
188,"1022 West Atlantic Street, South Hill, Va 23970",-78.1446548,36.7334592
189,"827 North Mecklenburg Avenue, South Hill, Va 23970",-78.1223047,36.7340852
190,"225 Hanbury Road East, Chesapeake, Va 23322",-76.2237252,36.6873558
191,"7565 Centreville Road, Manassas, Va 20111",-77.4479853,38.7915107
192,"11420 South Crater Road, Petersburg, Va 23805",-77.3553008,37.1557973
193,"12201 South Crater Road, Petersburg, Va 23805",-77.3579338,37.1443749
194,"99 Manassas Drive, Manassas, Va 20111",-77.453642,38.771568
195,"8103 Leesburg Pike, Vienna, Va 22182",-77.2254184,38.914035
196,"3100 Carolina Avenue, Richmond, Va 23222",-77.42025,37.573482
197,"2650 Park Tower Drive, Suite 150, Vienna, Va 22180",-77.2269076,38.8822766
198,"8020 West Blue Grass Trail, Ceres, Va 24318",-81.3411844,37.0182517
199,"10320 Festival Lane, Manassas, Va 20109",-77.5042183,38.7788325
200,"2081 Chain Bridge Road, Vienna, Va 22182",-77.2375986,38.9159731
201,"3212 Riverside Drive, Danville, Va 24541",-79.4250229,36.5860339
202,"5618 Lee Highway, Arlington, Va 22207",-77.141213,38.8952512
203,"2200 Nottoway Boulevard, Victoria, Va 23974",-78.2261061,37.0001956
204,"8229 Boone Boulevard, Vienna, Va 22182",-77.2310587,38.915409
205,"3991 West 3rd Street, Farmville, Va 23901",-78.457237,37.3162137
206,"505 Court Street, Victoria, Va 23974",-78.235241,36.987437
207,"2500 N. Harrison St, Arlington, Va 22207",-77.1394415,38.8968453
208,"3371 Slate River Mill Road, Dillwyn, Va 23936",-78.5364284,37.5941552
209,"216 Broad Street, Kenbridge, Va 23944",-78.1262445,36.9619399
210,"1196 Main Street, Dillwyn, Va 23936",-78.4542641,37.542525
211,"4709 Lee Highway, Arlington, Va 22207",-77.1223239,38.8984978
212,"5601 Lee Highway, Arlington, Va 22207",-77.141002,38.895835
213,"2100 West Main Street, Danville, Va 24541",-79.4536493,36.561798
214,"9372 Richmond Highway, Lorton, Va 22079",-77.2052466,38.7066008
215,"4205 North Avenue, Richmond, Va 23222",-77.442204,37.5868184
216,"302 South Main Street, Pearisburg, Va 24134",-80.734093,37.323912
217,"818 Florida Avenue, Lynchburg, Va 24501",-79.136664,37.401788
218,"2003 South Main Street, Farmville, Va 23901",-78.4016091,37.2745966
219,"3631 Amherst Highway, Madison Heights, Va 24572",-79.1185655,37.4824273
220,"1200 Lakeside Drive, Lynchburg, Va 24501",-79.1789966,37.4030694
221,"100 Main Street, Amherst, Va 24521",-79.050852,37.5876201
222,"5770 Chesapeake Boulevard, Norfolk, Va 23505",-76.2439719,36.8857072
223,"950 Main Street, Victoria, Va 23974",-78.2191718,36.987112
224,"1933 Patrick Henry Highway, Amherst, Va 24521",-79.0106247,37.6577221
225,"1605 Memorial Avenue, Lynchburg, Va 24501",-79.1604184,37.4101758
226,"521 East Little Creek Road, Norfolk, Va 23505",-76.257848,36.9169026
227,"46373 Bartholomew Fair Drive, Sterling, Va 20164",-77.394952,39.025763
228,"12709 James Monroe Highway, Leesburg, Va 20176",-77.5445785,39.2635317
229,"7206 Centreville Road, Manassas, Va 20111",-77.4483565,38.8009169
230,"5751 Burke Center Parkway, Burke, Va 22015",-77.3199421,38.7986118
231,"5615 Stone Road, Centreville, Va 20120",-77.4493534,38.8540368
232,"2220 Lakeside Drive, Lynchburg, Va 24501",-79.208634,37.399746
233,"801 Independence Boulevard, Virginia Beach, Va 23455",-76.1330218,36.8660571
234,"558 Raven Road, Raven, Va 24639",-81.86093,37.0875799
235,"2544 Bainbridge Boulevard, Chesapeake, Va 23324",-76.2778037,36.7995243
236,"7064 Spring Garden Dr, Springfield, Va 22150",-77.1864269,38.7726547
237,"984 Laskin Road, Virginia Beach, Va 23451",-75.9902323,36.8577957
238,"5792 Northampton Boulevard, Virginia Beach, Va 23455",-76.1861622,36.883383
239,"1555 Holland Road, Suffolk, Va 23434",-76.638961,36.721891
240,"1778 East Little Creek Road, Norfolk, Va 23518",-76.2267275,36.9168994
241,"4300 Colley Avenue, Norfolk, Va 23508",-76.2948595,36.883648
242,"6016 Indian River Road, Virginia Beach, Va 23464",-76.201659,36.8109391
243,"1318 East Lee Highway, Wytheville, Va 24382",-80.9929015,36.9387489
244,"5615 Stone Road, Centreville, Va 20120",-77.4493534,38.8540368
245,"395 North 4th Street, Wytheville, Va 24382",-81.0874696,36.9504887
246,"1155 North 4th Street Suite 200, Wytheville, Va 24382",-81.0957549,36.956001
247,"117 Ready Mix Road, Wytheville, Va 24382",-80.9800549,36.937132
248,"501 Roosevelt Boulevard, Falls Church, Va 22044",-77.1538139,38.876602
249,"14141 Lankford Highway, Mappsville, Va 23407",-75.5671959,37.8457796
250,"6277 Cleveland Street, Chincoteague, Va 23336",-75.3776392,37.9334986
251,"9411 Lee Highway, Suite U, Fairfax, Va 22031",-77.2707021,38.8673671
252,"6691 Maddox Boulevard, Chincoteague Island, Va 23336",-75.3560863,37.928046
253,"2632 South Battlefield Boulevard, Chesapeake, Va 23322",-76.2078753,36.632619
254,"2037 Philpott Road, South Boston, Va 24592",-78.9171328,36.6782658
255,"501 South Washington Street, Alexandria, Va 22314",-77.048291,38.8002901
256,"2136 Princess Anne Road, Virginia Beach, Va 23456",-76.011004,36.7560774
257,"5020 Ferrell Parkway, Virginia Beach, Va 23464",-76.1651634,36.7945823
258,"3201 George Washington Highway, Portsmouth, Va 23704",-76.3120988,36.8140681
259,"9607 Shore Drive, Norfolk, Va 23518",-76.191619,36.928661
260,"6110 North Military Highway, Norfolk, Va 23518",-76.2231999,36.8951901
261,"7518 Old Linton Hall Road, Gainesville, Va 20155",-77.6131811,38.7948568
262,"2005 Sandbridge Road, Virginia Beach, Va 23456",-76.009146,36.75041
263,"2452 Lankford Highway, New Church, Va 23415",-75.5404514,37.9992325
264,"2337 Fort Avenue, Lynchburg, Va 24501",-79.1612809,37.4010392
265,"10405 Grayson Parkway, Galax, Va 24333",-80.9760873,36.6323404
266,"2220 Lakeside Drive, Lynchburg, Va 24501",-79.208634,37.399746
267,"5634 Campbell Highway, Lynchburg, Va 24501",-79.107926,37.352601
268,"2900 Memorial Avenue, Lynchburg, Va 24501",-79.169023,37.398615
269,"7206 Centreville Road, Manassas, Va 20111",-77.4483565,38.8009169
270,"3130 Lee Highway, Arlington, Va 22201",-77.0981111,38.8955396
271,"1401 North Taft Street, Arlington, Va 22201",-77.0814774,38.8895193
272,"920 Mediterranean Avenue, Virginia Beach, Va 23451",-75.9792701,36.8372644
273,"2800 Artic Avenue, Virginia Beach, Va 23451",-75.9809956,36.8557129
274,"984 Laskin Road, Virginia Beach, Va 23451",-75.9902323,36.8577957
275,"201 Lassiter Drive, Hampton, Va 23666",-76.422122,37.021568
276,"4201 West Mercury Blvd, Hampton, Va 23666",-76.4298192,37.0259765
277,"5211 Ox Road, Fairfax, Va 22030",-77.320694,38.815938
278,"1133 West Mercury Blvd, Hampton, Va 23666",-76.387909,37.0413448
279,"2711 Kecoughtan Road, Hampton, Va 23661",-76.375029,37.004909
280,"74 Indian Village Trail, Bastian, Va 24314",-81.1388462,37.1770259
281,"2610 Cunningham Drive, Hampton, Va 23666",-76.403792,37.041763
282,"12709 James Monroe Highway, Leesburg, Va 20176",-77.5445785,39.2635317
283,"31 Campbell Avenue Southwest, Suite B, Roanoke, Va 24011",-79.9419462,37.2718631
284,"14335 Jefferson Davis Highway, Woodbridge, Va 22191",-77.2659765,38.6410533
285,"7522 Centreville Road, Manassas, Va 20111",-77.448532,38.7908789
286,"8680 Liberia Avenue, Manassas, Va 20110",-77.4629616,38.76368
287,"8195 Sudley Road, Manassas, Va 20109",-77.50696,38.778445
288,"14496 Gideon Drive, Woodbridge, Va 22192",-77.2981302,38.6388776
289,"1804 West Washington Street, Petersburg, Va 23803",-77.4347798,37.2191821
290,"2200 Tacketts Mill Road, Woodbridge, Va 22192",-77.277931,38.676178
291,"4841 Williamson Road Northwest, Roanoke, Va 24012",-79.9542538,37.3164291
292,"3909 Challanger Avenue, Roanoke, Va 24012",-79.8840919,37.311117
293,"3956 South Main Street, Blacksburg, Va 24060",-80.4160063,37.1783616
294,"5605 Blackwater Road, Virginia Beach, Va 23457",-76.085055,36.607339
295,"1722 Church Street, Norfolk, Va 23504",-76.278655,36.864775
296,"1510 East Brambleton Avenue, Norfolk, Va 23504",-76.2704696,36.8470577
297,"1102 South Military Highway, Chesapeake, Va 23320",-76.2197375,36.8078589
298,"1555 Holland Road, Suffolk, Va 23434",-76.638961,36.721891
299,"26036 Cox Road, Petersburg, Va 23803",-77.4551187,37.2153348
300,"2902 Godwin Boulevard, Suffolk, Va 23434",-76.5820317,36.775489
301,"1628 Independence Boulevard #1520, Virginia Beach, Va 23455",-76.1408932,36.894198
302,"25722 Cox Road, Petersburg, Va 23803",-77.4597122,37.2144176
303,"1900 Diamond Springs Road, Virginia Beach, Va 23455",-76.1793173,36.9007683
304,"395 North 4th Street, Wytheville, Va 24382",-81.0874696,36.9504887
305,"445 Bradford Drive, Charlotte, Nc 28208",-80.896895,35.256383
306,"5230 Poplar Tent Road, Concord, Nc 28027",-80.6662612,35.4134943
307,"216 Airport Road, Rockingham, Nc 28379",-79.770475,34.916281
308,"610 East Nash Street, Spring Hope, Nc 27882",-78.104338,35.950784
309,"202 North Pine Street, Spring Hope, Nc 27882",-78.112236,35.945382
310,"100 North Louisburg Road, Spring Hope, Nc 27882",-78.1040783,35.9511768
311,"1010 South New Hope Road, Gastonia, Nc 28052",-81.145293,35.252085
312,"100 North Lionel Street, Goldsboro, Nc 27530",-77.9852152,35.3800276
313,"110 North Navassa Road, Navassa, Nc 28451",-77.998829,34.251822
314,"826 South Horner Boulevard, Sanford, Nc 27330",-79.170768,35.47046
315,"1605 Herring Avenue, Wilson, Nc 27893",-77.8875365,35.7353977
316,"10601 East Nc 97, Rocky Mount, Nc 27803",-77.861782,35.8914834
317,"603 East Nash Street, Spring Hope, Nc 27882",-78.1059723,35.9518279
318,"1515 Fancy Gap Road, Mount Airy, Nc 27030",-80.636128,36.534256
319,"4408 Chapel Grove Road, Gastonia, Nc 28052",-81.2374144,35.2320643
320,"1340 National Highway, Thomasville, Nc 27360",-80.057834,35.917797
321,"106 Old Highway 74/76 West, Lake Waccamaw, Nc 28450",-78.5229577,34.3224194
322,"24917 North Carolina Highway 87 East, Riegelwood, Nc 28456",-78.296064,34.387745
323,"1332 South Main Street, High Point, Nc 27260",-80.000475,35.9416579
324,"2303 North Church Street, Greensboro, Nc 27405",-79.781474,36.10431
325,"455 Jumping Run Road, Dunn, Nc 28334",-78.483023,35.28493
326,"805 Roland Avenue, Surf City, Nc 28445",-77.5517761,34.4332796
327,"1022 North William Street, Goldsboro, Nc 27530",-77.987399,35.396085
328,"4100 Cherry Street, Winston Salem, Nc 27105",-80.264447,36.141802
329,"1334 North Fayetteville Street # A, Asheboro, Nc 27203",-79.807346,35.729998
330,"1298 North Highway 16, Denver, Nc 28037",-80.99284,35.478148
331,"2507 Westerly Hills Drive, Charlotte, Nc 28208",-80.897341,35.226231
332,"305 West Main Street, Gibsonville, Nc 27249",-79.544991,36.106695
333,"601 Eastway Drive, Charlotte, Nc 28205",-80.780739,35.249274
334,"2118 North Aspen Street, Lincolnton, Nc 28092",-81.2416219,35.4991404
335,"818 Spring Lane, Sanford, Nc 27330",-79.1944158,35.4889798
336,"1225 East Andrews Avenue, Henderson, Nc 27536",-78.3853507,36.3205828
337,"607 East Boulevard, Williamston, Nc 27892",-77.0495768,35.8453319
338,"1110 Goldsboro Street Southwest, Wilson, Nc 27893",-77.924508,35.714953
339,"10022 University City Boulevard, Charlotte, Nc 28213",-80.7161573,35.3093824
340,"3948 Caratoke Highway, Barco, Nc 27917",-75.9771814,36.3868178
341,"4920 Reynolda Road, Winston Salem, Nc 27106",-80.3349421,36.1666925
342,"319 Pender Street Southeast, Wilson, Nc 27893",-77.905525,35.7177099
343,"300 North Main Street, Holly Springs, Nc 27540",-78.834003,35.655379
344,"2400 Randleman Road, Greensboro, Nc 27406",-79.8007777,36.0392048
345,"1809 South York Road, Gastonia, Nc 28052",-81.195094,35.238976
346,"23781 Highway 12, Rodanthe, Nc 27968",-75.464899,35.593983
347,"1100 North Raleigh Boulevard, Suite 145, Raleigh, Nc 27610",-78.6113699,35.7939867
348,"806 South Main Street, Louisburg, Nc 27549",-78.3057232,36.0923175
349,"1201 Produce Market Road, Laurinburg, Nc 28352",-79.446413,34.790345
350,"2700 East Lexington Avenue, High Point, Nc 27262",-79.9797937,35.9800072
351,"8812 Mount Holly Road, Charlotte, Nc 28214",-80.954103,35.285812
352,"8200 Cliffdale Road, Fayetteville, Nc 28314",-79.0497561,35.0594797
353,"269 South Hoskins Road, Charlotte, Nc 28208",-80.8872781,35.2636115
354,"1298 North Highway 16, Denver, Nc 28037",-80.99284,35.478148
355,"701 Dallas Stanley Highway, Dallas, Nc 28034",-81.1569759,35.3251726
356,"600 South Brightleaf Boulevard, Smithfield, Nc 27577",-78.345576,35.502482
357,"445 Bradford Drive, Charlotte, Nc 28208",-80.896895,35.256383
358,"801 East 11th Street, Siler City, Nc 27344",-79.457112,35.733538
359,"455 Jumping Run Road, Dunn, Nc 28334",-78.483023,35.28493
360,"1105 Ward Boulevard, Wilson, Nc 27893",-77.9366833,35.7184732
361,"404 Pender Street East, Wilson, Nc 27893",-77.9032227,35.7247153
362,"1127 Stantonsburg Circle Southeast, Wilson, Nc 27893",-77.9026114,35.7080572
363,"705 Black Creek Road Southeast, Wilson, Nc 27893",-77.905426,35.714378
364,"228 Wesley Heights Way, Charlotte, Nc 28208",-80.86148,35.237124
365,"6132 North Tryon Street, Suite F, Charlotte, Nc 28213",-80.7670635,35.2703753
366,"715 West Trade Street, Dallas, Nc 28034",-81.184917,35.3154894
367,"3424 Wilkinson Boulevard, Charlotte, Nc 28208",-80.8974671,35.2249247
368,"1421 East Andrews Avenue, Henderson, Nc 27536",-78.3821845,36.3190579
369,"700 Us Highway 301 East, Suite C, Wilson, Nc 27893",-77.8930327,35.7198217
370,"1899 Skibo Road, Fayetteville, Nc 28303",-78.964945,35.071239
371,"2118 North Aspen Street, Lincolnton, Nc 28092",-81.2416219,35.4991404
372,"200 West Andrews Avenue, Henderson, Nc 27536",-78.4010127,36.3312451
373,"5235 South Boulevard, Charlotte, Nc 28217",-80.8756643,35.1651458
374,"1225 East Andrews Avenue, Henderson, Nc 27536",-78.3853507,36.3205828
375,"7020 Lawyers Road, Charlotte, Nc 28227",-80.724031,35.201383
376,"1100 North Raleigh Boulevard, Suite 145, Raleigh, Nc 27610",-78.6113699,35.7939867
377,"215 Us Highway 1 South, Norlina, Nc 27563",-78.1709413,36.4865176
378,"1051 East Broad Street, Fuquay Varina, Nc 27526",-78.7811118,35.5947435
379,"408 North Main Street, Laurinburg, Nc 28352",-79.458245,34.7818835
380,"7730 Nc Highway 704, Madison, Nc 27025",-80.0250276,36.4225949
381,"1201 Produce Market Road, Laurinburg, Nc 28352",-79.446413,34.790345
382,"3038 Us Highway 158 East, Reidsville, Nc 27320",-79.6075367,36.3690436
383,"1117 Washington Street, Eden, Nc 27288",-79.7786579,36.487376
384,"907 West Academy Street, Madison, Nc 27025",-79.978385,36.382687
385,"1204 Worth Street, Durham, Nc 27701",-78.886839,35.988673
386,"839 Rauhut Street, Burlington, Nc 27217",-79.433796,36.106758
387,"4214 South Nc Highway 49, Burlington, Nc 27215",-79.444765,36.020493
388,"3324 Thomasville Road, Winston Salem, Nc 27107",-80.2101269,36.0561827
389,"805 Roland Avenue, Surf City, Nc 28445",-77.5517761,34.4332796
390,"1639 Brushy Mountain Road, Wilkesboro, Nc 28697",-81.0587544,36.0330595
391,"504 Mobile Street, Greensboro, Nc 27406",-79.8018321,36.0443355
392,"1200 South Croatan Highway, Kill Devil Hills, Nc 27948",-75.6556677,36.0035309
393,"1601 New Bern Avenue, Raleigh, Nc 27610",-78.615476,35.7804073
394,"112 Bass Lake Road, Holly Springs, Nc 27540",-78.8250661,35.6537868
395,"2233 Avent Ferry Road, Suite 113, Raleigh, Nc 27606",-78.6749731,35.7777581
396,"100 West Ocean Bay Boulevard, Kill Devil Hills, Nc 27948",-75.660565,36.013839
397,"1901 Lowell Bethesda Road, Gastonia, Nc 28056",-81.0982967,35.2430579
398,"1809 South York Road, Gastonia, Nc 28052",-81.195094,35.238976
399,"524 South Swain Street, Raleigh, Nc 27601",-78.6295868,35.7728171
400,"1720 North Croatan Highway, Kill Devil Hills, Nc 27948",-75.6723888,36.0328133
401,"692 South Andy Griffith Parkway, Suite 112, Mount Airy, Nc 27030",-80.6168575,36.485115
402,"612 Hickory Grove Road, Gastonia, Nc 28056",-81.06598,35.268482
403,"1531 Greenville Boulevard Southeast, Greenville, Nc 27858",-77.3469102,35.590454
404,"505 South Central Avenue, Belmont, Nc 28012",-81.038984,35.232088
405,"321 North Tarboro Street, Raleigh, Nc 27610",-78.62245,35.784277
406,"3310 Dearborn Drive, Durham, Nc 27704",-78.8756026,36.0378934
407,"1101 Catherine Creek Road North, Ahoskie, Nc 27910",-76.9730682,36.2905405
408,"1716 East Market Street, Smithfield, Nc 27577",-78.3241451,35.5044065
409,"2021 Guess Road, Durham, Nc 27705",-78.9185144,36.0228434
410,"243 Nc Highway 33 East, Tarboro, Nc 27886",-77.5227859,35.8741472
411,"5400 Apex Peakway, Apex, Nc 27502",-78.8662106,35.7370102
412,"2628 Hendersonville Road, Arden, Nc 28704",-82.5077218,35.4463516
413,"1441 Hunterhill Road, Rocky Mount, Nc 27804",-77.8220453,35.9716545
414,"22 Airport Road, Arden, Nc 28704",-82.516564,35.459242
415,"873 Longbranch Road, Dunn, Nc 28334",-78.6156877,35.2695402
416,"3452 Us Highway 311, Madison, Nc 27025",-80.0295917,36.3574869
417,"2808 Hillsborough Street, Raleigh, Nc 27607",-78.6744812,35.7894427
418,"1554 North Bragg Boulevard, Spring Lake, Nc 28390",-78.9853684,35.191478
419,"701 West Church Street, Cherryville, Nc 28201",-81.3885293,35.37954
420,"2041 Milburnie Road, Raleigh, Nc 27610",-78.6128245,35.7883999
421,"1008 East Church Street, Cherryville, Nc 28021",-81.367772,35.385745
422,"3926 Western Boulevard, Raleigh, Nc 27607",-78.6927858,35.7862899
423,"1700 Cotton Grove Road, Lexington, Nc 27292",-80.2593748,35.7780453
424,"2400 Randleman Road, Greensboro, Nc 27406",-79.8007777,36.0392048
425,"106 Yates Hill Road, Rockingham, Nc 28379",-79.786067,34.940419
426,"4724 Stantonsburg Road, Greenville, Nc 27834",-77.483361,35.6051379
427,"203 Raleigh Road, Lexington, Nc 27292",-80.245583,35.826457
428,"540-a East Main Street, Williamston, Nc 27892",-77.048457,35.859014
429,"5467 West Highway 27, Vale, Nc 28168",-81.4192762,35.4970655
430,"913 West Main Street, Yadkinville, Nc 27055",-80.6766477,36.1352164
431,"2673 Plateau Road, Vale, Nc 28168",-81.375499,35.536631
432,"4100 Cherry Street, Winston Salem, Nc 27105",-80.264447,36.141802
433,"9413 North Highway 10, Vale, Nc 28168",-81.501628,35.555273
434,"5920 Weddington-monroe Road, Wesley Chapel, Nc 28104",-80.7000074,34.9999586
435,"1605 Way Street, Reidsville, Nc 27320",-79.657386,36.341225
436,"1300 Oakwood Avenue, Raleigh, Nc 27610",-78.6217731,35.7840548
437,"2140 Cat Square Road, Vale, Nc 28168",-81.4097029,35.5401079
438,"407 East Vance Street, Laurinburg, Nc 28352",-79.457916,34.767143
439,"117 Us Highway 13 Bypass, Windsor, Nc 27983",-76.9569765,36.0084753
440,"173 South Franklin Road, Mount Airy, Nc 27030",-80.633831,36.49955
441,"4614 Ita Road, Enfield, Nc 27823",-77.9178895,36.1925933
442,"125 Greenwood Road, Spruce Pine, Nc 28777",-82.074458,35.9154171
443,"2107 Pyramid Village Boulevard, Greensboro, Nc 27405",-79.7558181,36.1082039
444,"2208 Golden Gate Drive, Greensboro, Nc 27405",-79.7824684,36.1027815
445,"913-g West 3rd Street, Pembroke, Nc 28372",-79.2097374,34.6858478
446,"7571 North Us Highway 19 East, Elk Park, Nc 28622",-81.9781722,36.1573464
447,"501 South Memorial Drive, Greenville, Nc 27834",-77.392583,35.612596
448,"301 East Williams Street, Apex, Nc 27502",-78.8506474,35.7264324
449,"1000 Brookside Drive, Unit 119, Raleigh, Nc 27604",-78.6246526,35.7925697
450,"302 1st Street West, Conover, Nc 28613",-81.220235,35.707652
451,"709 West Peace Street, Raleigh, Nc 27605",-78.6494927,35.7883184
452,"516 West South Street, Raleigh, Nc 27601",-78.6468813,35.7727079
453,"589 Brevard Road, Asheville, Nc 28806",-82.6005306,35.5533249
454,"8532 Nc Highway 33 West, Whitakers, Nc 27891",-77.7969733,36.1282365
455,"2631 Nc Highway 127 South, Hickory, Nc 28602",-81.3582717,35.6928632
456,"131 Turnersburg Highway, Statesville, Nc 28625",-80.8763434,35.8093972
457,"3219 Taylorsville Road, Statesville, Nc 28625",-80.9390677,35.7974761
458,"1101 West New Bern Road, Kinston, Nc 28504",-77.601693,35.254999
459,"5703 Nc 96 Highway West, Youngsville, Nc 27596",-78.502815,36.04437
460,"6341 Deans Street, Bailey, Nc 27807",-78.1163072,35.7798031
461,"1395 West D Street, North Wilkesboro, Nc 28659",-81.157428,36.1577002
462,"22091 Nc Highway 48, Enfield, Nc 27823",-77.846987,36.2115925
463,"3296 Nc Highway 48, Roanoke Rapids, Nc 27870",-77.702726,36.409874
464,"4650 Swift Creek School Road, Whitakers, Nc 27891",-77.861148,36.115166
465,"12352 Oak Avenue, Bailey, Nc 27807",-78.119068,35.781561
466,"2759 Statesville Road, North Wilkesboro, Nc 28659",-81.103307,36.138544
467,"2146 Nc Highway 102 East, Ayden, Nc 28513",-77.3482441,35.4695049
468,"3317 Rolesville Road, Wendell, Nc 27591",-78.4464548,35.8461063
469,"900 Poole Drive, Garner, Nc 27529",-78.6169658,35.6956975
470,"702 River Street, Wilkesboro, Nc 28697",-81.1631565,36.1453655
471,"608 West Main Street, Wilkesboro, Nc 28697",-81.1613,36.1460579
472,"300 North Main Street, Holly Springs, Nc 27540",-78.834003,35.655379
473,"930 Highway 711 East, Pembroke, Nc 28372",-79.1838835,34.6701857
474,"1902 Old Haywood Road, Asheville, Nc 28806",-82.6327464,35.56485
475,"5710 Nc Highway 751, Apex, Nc 27523",-78.964252,35.819484
476,"1004 South Chatham Avenue, Siler City, Nc 27344",-79.456632,35.711676
477,"902a Us 64 Highway West, Apex, Nc 27523",-78.8215882,35.7444906
478,"1710 Center Street, Apex, Nc 27502",-78.827537,35.725216
479,"1901 Brentwood Street, High Point, Nc 27260",-79.978593,35.943805
480,"108 East Main Street, Woodland, Nc 27897",-77.21215,36.33152
481,"711 Sullivan Road, Statesville, Nc 28677",-80.8765995,35.8047542
482,"100 South Virginia Dare Trail, Kill Devil Hills, Nc 27948",-75.6577946,36.0141715
483,"8712 Pence Road, Charlotte, Nc 28215",-80.688242,35.214501
484,"210 East Main Street, Conway, Nc 27820",-77.2264022,36.4369936
485,"3541 Taylorsville Highway, Statesville, Nc 28677",-80.9425681,35.8024831
486,"324 West Geer Street, Durham, Nc 27701",-78.8992006,36.004007
487,"3601 Sunset Avenue, Rocky Mount, Nc 27804",-77.8498199,35.963329
488,"514 West Grover Street, Shelby, Nc 28150",-81.55219,35.303001
489,"7601 Knightdale Boulevard, Knightdale, Nc 27545",-78.47418,35.799772
490,"2365 South Church Street, Rocky Mount, Nc 27803",-77.807422,35.916784
491,"1178 West Raleigh Boulevard, Rocky Mount, Nc 27803",-77.8148708,35.9294334
492,"4525 Chapel Hill Boulevard, Durham, Nc 27707",-78.976176,35.961236
493,"992 Nc Highway 150 West, Greensboro, Nc 27455",-79.8429851,36.2001752
494,"3006 Academy Road, Durham, Nc 27707",-78.9435532,35.9709843
495,"521 South Mcdaniel Street, Enfield, Nc 27823",-77.6706705,36.173917
496,"2224 South Horner Boulevard, Sanford, Nc 27330",-79.1479425,35.4609781
497,"1740 West Trade Street, Suite A, Charlotte, Nc 28216",-80.8582952,35.2411999
498,"3569 South Fields Street, Farmville, Nc 27828",-77.594894,35.5947789
499,"106 South Topsail Drive, Surf City, Nc 28445",-77.5456053,34.4259718
500,"3227 South Holden Road, Greensboro, Nc 27407",-79.8457744,36.0208489
501,"2868 Nc Highway 39 South, Henderson, Nc 27537",-78.379594,36.3006053
502,"3245 Rozzelles Ferry Road, Charlotte, Nc 28216",-80.875635,35.256189
503,"13386 North Carolina Highway 50, Holly Ridge, Nc 28445",-77.5564636,34.4973264
504,"2738 Bragg Boulevard, Fayetteville, Nc 28303",-78.9256213,35.0741705
505,"301 Roland Avenue, Surf City, Nc 28445",-77.5458267,34.4264969
506,"531 Jefferson Street, Whiteville, Nc 28472",-78.691647,34.339341
507,"2519 The Plaza, Charlotte, Nc 28205",-80.804544,35.2357334
508,"2507 Westerly Hills Drive, Charlotte, Nc 28208",-80.897341,35.226231
509,"8425 Wilkinson Boulevard, Charlotte, Nc 28214",-80.983373,35.241258
510,"1001 Hickory Chapel Road, Lot A, High Point, Nc 27260",-79.966557,35.954565
511,"4324 Hovis Road, Charlotte, Nc 28208",-80.893284,35.262785
512,"5551 Nc Highway 42 West, Wilson, Nc 27893",-78.0415497,35.702987
513,"2820 L D Parker Drive, Charlotte, Nc 28206",-80.83569,35.259209
514,"319 Pender Street Southeast, Wilson, Nc 27893",-77.905525,35.7177099
515,"8812 Mount Holly Road, Charlotte, Nc 28214",-80.954103,35.285812
516,"4182 South Main Street, Farmville, Nc 27828",-77.593419,35.584082
517,"2999 Lillington Highway, Spring Lake, Nc 28390",-78.9423251,35.2190772
518,"509 Sunset Avenue, Asheboro, Nc 27203",-79.8211398,35.7057548
519,"622 North Madison Avenue, Goldsboro, Nc 27530",-77.968312,35.383383
520,"1227 Us Highway 158, Oxford, Nc 27565",-78.7352214,36.3134278
521,"9393 Oxford Highway, Rougemont, Nc 27572",0.0,0.0
522,"19733 Statesville Road, Cornelius, Nc 28031",-80.8732331,35.4832583
523,"1002 East 5th Street, Lumberton, Nc 28358",-78.996011,34.618091
524,"301 West Grantham Street, Goldsboro, Nc 27530",-77.9966151,35.3932083
525,"1423 East Club Boulevard, Durham, Nc 27704",-78.870627,36.027411
526,"16440 Andrew Jackson Highway, Laurinburg, Nc 28352",-79.4485289,34.768918
527,"2924 Mount Holly-huntersville Road, Charlotte, Nc 28214",-80.9514849,35.3190184
528,"542 Fork Road, Norwood, Nc 28128",-80.1114734,35.2164702
529,"717 East Caswell Street, Wadesboro, Nc 28170",-80.065456,34.968987
530,"1416 West Ehringhaus Street, Elizabeth City, Nc 27909",-76.2434228,36.2940654
531,"1208 Simmons Street, New Bern, Nc 28560",-77.0734654,35.1146807
532,"107 North Greene Street, Greensboro, Nc 27401",-79.7915333,36.0727747
533,"1060 Salisbury Road, Statesville, Nc 28677",-80.8644798,35.7746705
534,"4337 Old Ocean Highway, Bolivia, Nc 28422",-78.1407898,34.0780331
535,"2305 South York Road, Gastonia, Nc 28052",-81.1949829,35.232991
536,"818 Spring Lane, Sanford, Nc 27330",-79.1944158,35.4889798
537,"1406 Gaston Avenue, Gastonia, Nc 28052",-81.20642,35.262502
538,"1001 Jackson Street, Roanoke Rapids, Nc 27870",-77.658781,36.456302
539,"1319 Roanoke Avenue, Roanoke Rapids, Nc 27870",-77.660552,36.450157
540,"1322 Linwood Road, Gastonia, Nc 28052",-81.2116989,35.2461798
541,"1521 North Raleigh Street, Rocky Mount, Nc 27801",-77.771088,35.945772
542,"519 Chestnut Street, Wilmington, Nc 28401",-77.942428,34.238263
543,"3037 Legion Road, Fayetteville, Nc 28306",-78.9134899,35.0034507
544,"520 North Martin Luther King Jr Drive, Winston Salem, Nc 27101",-80.2292216,36.1013818
545,"2328 Country Club Road, Lincolnton, Nc 28092",-81.212,35.459176
546,"201 South Main Street, Lowell, Nc 28098",-81.1017853,35.26556
547,"1901 East 14th Street, Winston Salem, Nc 27105",-80.2223465,36.1130397
548,"1105 North Broad Street, Edenton, Nc 27932",-76.5993364,36.0746804
549,"2103 North Graham Street, Unit E-f, Charlotte, Nc 28206",-80.8290076,35.2491887
550,"441 East Dixie Drive, Asheboro, Nc 27203",-79.8109489,35.689089
551,"1414 East Main Street, Albemarle, Nc 28001",-80.402349,35.2602443
552,"595 East Central Avenue, Asheboro, Nc 27203",-79.795389,35.75086
553,"5970 Nc Highway 561, Louisburg, Nc 27549",-78.1013079,36.186438
554,"1525 North Nc Highway 119, Mebane, Nc 27302",-79.273997,36.126211
555,"1899 South Gastonia Highway, Lincolnton, Nc 28092",-81.238667,35.447376
556,"4640 Old Pineville Road, Charlotte, Nc 28217",-80.8800774,35.1785947
557,"1430 River Ridge Drive, Clemmons, Nc 27012",-80.3925667,36.0756742
558,"2947 Gibbon Road, Charlotte, Nc 28269",-80.80681,35.300313
559,"1939 East Market Street, Greensboro, Nc 27401",-79.765111,36.074043
560,"5837 Asheville Highway, Hendersonville, Nc 28791",-82.5067678,35.3969392
561,"851 South Laurel Street, Lincolnton, Nc 28092",-81.243037,35.468009
562,"405 South Bragg Boulevard, Spring Lake, Nc 28390",-78.971395,35.1626775
563,"1100 North Ellis Avenue, Dunn, Nc 28334",-78.6080379,35.319209
564,"8100 Poplar Tent Road, Concord, Nc 28027",-80.713671,35.407983
565,"1203 North Ellis Avenue, Dunn, Nc 28334",-78.6075403,35.3211731
566,"2446 East Main Street, Lincolnton, Nc 28092",-81.2126627,35.4793637
567,"5421 Hornaday Road, Greensboro, Nc 27407",-79.9088147,36.0593508
568,"4257 Reidsville Road, Winston Salem, Nc 27101",-80.176968,36.125987
569,"1902 Owen Drive, Fayetteville, Nc 28306",-78.9280409,35.02725
570,"1305 North Liberty Street, Winston Salem, Nc 27105",-80.2341562,36.1112797
571,"4310 West Wendover Avenue, Greensboro, Nc 27407",-79.8899915,36.0576604
572,"4920 Reynolda Road, Winston Salem, Nc 27106",-80.3349421,36.1666925
573,"525 Harris Avenue, Raeford, Nc 28376",-79.2335142,34.9774944
574,"1526 North Fayetteville Street, Asheboro, Nc 27203",-79.807919,35.737713
575,"513 West Prospect Avenue, Raeford, Nc 28376",-79.2328075,34.9841823
576,"2900 Ramsey Street, Fayetteville, Nc 28301",-78.877007,35.097955
577,"404 Centre Street, Charlotte, Nc 28216",-80.872604,35.261345
578,"3000 West English Road, High Point, Nc 27262",-80.043924,35.930839
579,"841 Sprague Street, Winston Salem, Nc 27107",-80.220091,36.0681418
580,"525 South Center Street, Statesville, Nc 28677",-80.8854757,35.7791908
581,"508 Mcarthur Road, Fayetteville, Nc 28311",-78.8856395,35.1218734
582,"308 Turnersburg Highway, Statesville, Nc 28625",-80.8760152,35.8196695
583,"159 Airport Road, Rockingham, Nc 28379",-79.7759278,34.9256456
584,"1025 North Main Street, Kernersville, Nc 27284",-80.0530845,36.1357057
585,"902 Hay Street, Fayetteville, Nc 28305",-78.8950388,35.0564452
586,"3110-112 New Bern Avenue, Raleigh, Nc 27610",-78.586635,35.7885306
587,"500 Henley Street, High Point, Nc 27260",-79.9911432,35.967769
588,"4901 Red Springs Road, Red Springs, Nc 28377",-79.2091589,34.901302
589,"3030 Nobles Mill Pond Road, Rocky Mount, Nc 27801",-77.682409,35.896787
590,"316 South Fayetteville Street, Asheboro, Nc 27203",-79.8148057,35.7032852
591,"105 Martin Luther King Drive, Winston Salem, Nc 27101",-80.2283556,36.0967994
592,"522 Main Street West, Ahoskie, Nc 27910",-76.987088,36.286163
593,"720 East Ash Street, Goldsboro, Nc 27530",-77.9852226,35.3826504
594,"315 Randolph Street, Thomasville, Nc 27360",-80.077878,35.876836
595,"2300 Old Chapel Hill Hillsborough Road, Hillsborough, Nc 27278",-79.1026554,36.0512522
596,"207 Middle Street, Maxton, Nc 28364",-79.3476789,34.736743
597,"902 North Herman Street, Goldsboro, Nc 27530",-77.9798012,35.389187
598,"1111 Olivia Lane, Goldsboro, Nc 27530",-77.984214,35.370959
599,"2022 South Broad Street, Winston Salem, Nc 27127",-80.2430409,36.0716963
600,"117 North Carolina Highway 801 North, Advance, Nc 27006",-80.4118854,35.9445046
601,"915 North Enochville Avenue, China Grove, Nc 28023",-80.6660297,35.5340209
602,"282 Nc Highway 56 East, Louisburg, Nc 27549",-78.285141,36.096702
603,"416 Caratoke Highway, Moyock, Nc 27958",-76.1841134,36.5298162
604,"5467 West Highway 27, Vale, Nc 28168",-81.4192762,35.4970655
605,"100 Law Road, Fayetteville, Nc 28311",-78.8782338,35.1073365
606,"838 South Jefferson Avenue, West Jefferson, Nc 28694",-81.4880019,36.3906937
607,"400 East Elm Street, Graham, Nc 27253",-79.393452,36.071464
608,"601 West Ash Street, Goldsboro, Nc 27530",-78.003619,35.388301
609,"800 South State Street, Yadkinville, Nc 27055",-80.6603972,36.1205722
610,"126 West Church Street, Lewiston Woodville, Nc 27849",-77.177172,36.123551
611,"547-a South Mendenhall Street, Greensboro, Nc 27403",-79.8028577,36.0670972
612,"5000 Old Walkertown Road, Winston Salem, Nc 27105",-80.204475,36.158168
613,"3039 South Boulevard, Suite 1, Charlotte, Nc 28209",-80.868864,35.1972535
614,"128 South Reilly Road, Fayetteville, Nc 28314",-79.010534,35.080042
615,"206 Southwest Center Street, Faison, Nc 28341",-78.137002,35.114794
616,"1500 East Market Street, Unit A, Greensboro, Nc 27401",-79.7732353,36.0714792
617,"2216 Us 29 Business, Reidsville, Nc 27320",-79.672065,36.314319
618,"306 1/2 South Elm Street, Greensboro, Nc 27401",-79.7908035,36.0698576
619,"1051 North Carolina 242 South, Benson, Nc 27504",-78.53841,35.364001
620,"110 Mcwalker Road, Reidsville, Nc 27320",-79.663929,36.2502799
621,"5602 Bragg Boulevard, Fayetteville, Nc 28303",-78.9578439,35.1007407
622,"4628 High Point Road, Greensboro, Nc 27407",-79.8704459,36.028136
623,"4700 High Point Road, Greensboro, Nc 27407",-79.868796,36.030511
624,"2890 Reynolda Road, Winston Salem, Nc 27106",-80.3006293,36.1427232
625,"4448 Lee Street, Ayden, Nc 28513",-77.41877,35.465503
626,"6626 Highway 87 North, Gibsonville, Nc 27249",-79.5203285,36.2660036
627,"5800 West Market Street, Greensboro, Nc 27409",-79.8977659,36.0767269
628,"2809 Groometown Road Suite C, Greensboro, Nc 27407",-79.8671586,36.0305741
629,"2100 North Virginia Dare Trail, Kill Devil Hills, Nc 27948",-75.675303,36.043294
630,"2424 West Green Drive, High Point, Nc 27260",-80.01507,35.923749
631,"1403 South 7th Street, Sanford, Nc 27330",-79.159045,35.474329
632,"806 Kanuga Road, Hendersonville, Nc 28739",-82.462493,35.3060509
633,"5436 North Church Street, Greensboro, Nc 27405",-79.7810932,36.1119424
634,"316 Washington Avenue, Weldon, Nc 27890",-77.5972581,36.4264228
635,"1726 Marshburn Road, Wendell, Nc 27591",-78.37459,35.8162
636,"1632 South Tryon Street, Charlotte, Nc 28203",-80.8599918,35.2149985
637,"6930 West Market Street, Greensboro, Nc 27409",-79.930462,36.081203
638,"1205 Martin Luther King Drive, Greensboro, Nc 27406",-79.7841853,36.056209
639,"2214 Statesville Avenue, Charlotte, Nc 28206",-80.8357978,35.2517634
640,"3801 North Duke Street, Durham, Nc 27704",-78.9058154,36.0514097
641,"3500 North Roxboro Street, Durham, Nc 27704",-78.8935356,36.0381335
642,"2906 High Point Road, Greensboro, Nc 27403",-79.8704459,36.028136
643,"1812 Holloway Street, Durham, Nc 27703",-78.8697778,35.9925419
644,"139 West Whitfield Street, Enfield, Nc 27823",-77.6673973,36.1812962
645,"3132 Calvary Drive, Suite 101, Raleigh, Nc 27604",-78.5780473,35.8437083
646,"1201 West Main Street, Elizabeth City, Nc 27909",-76.2382,36.3036
647,"301 North Wall Street, Benson, Nc 27504",-78.5475329,35.3836933
648,"110 River Oaks Drive, Tarboro, Nc 27886",-77.5452353,35.8831311
649,"301 South Pollock Street, Selma, Nc 27576",-78.2859426,35.5338461
650,"1805 Weeksville Road, Elizabeth City, Nc 27909",-76.2112614,36.2729933
651,"3517 Highway 86 North, Hillsborough, Nc 27278",-79.1218357,36.1431776
652,"4115 Old Tar Road, Winterville, Nc 28590",-77.383901,35.55083
653,"3601 North Church Street, Greensboro, Nc 27405",-79.78968,36.1286429
654,"101 North Statesville Road, Huntersville, Nc 28078",-80.8540554,35.4095437
655,"3407 Old Lexington Road, Winston Salem, Nc 27101",-80.224891,36.053035
656,"711 Sullivan Road, Statesville, Nc 28677",-80.8765995,35.8047542
657,"7413 Market Street, Wilmington, Nc 28411",-77.814342,34.2781173
658,"9413 North Highway 10, Vale, Nc 28168",-81.501628,35.555273
659,"4621 Hillsborough Road, Durham, Nc 27705",-78.9792006,36.0318768
660,"1805 Sapona Road, Fayetteville, Nc 28312",-78.844088,35.0394239
661,"25 Jr Road, Selma, Nc 27576",-78.2839893,35.535037
662,"1419 West Trade Street, Charlotte, Nc 28216",-80.858949,35.2366519
663,"101 North English Street, Greensboro, Nc 27401",-79.7578853,36.0769435
664,"602 Jones Ferry Road, Suite L2, Carrboro, Nc 27510",-79.0891651,35.9068411
665,"2128 Angier Avenue, Durham, Nc 27703",-78.8765992,35.9812077
666,"8055 Highway 64 Alternate West, Tarboro, Nc 27886",-77.6489641,35.9334671
667,"5265 Taylor Store Road, Nashville, Nc 27856",-77.9793616,36.057032
668,"1011 Liberty Road, Archdale, Nc 27263",-79.9481252,35.9229881
669,"269 South Hoskins Road, Charlotte, Nc 28208",-80.8872781,35.2636115
670,"7941 Highway 74 West, Polkton, Nc 28135",-80.2034888,35.0025842
671,"320 West Fifth Street, Roanoke Rapids, Nc 27870",-77.6554981,36.4653378
672,"408 Beaman Street, Clinton, Nc 28328",-78.3219211,35.0051566
673,"839 Rauhut Street, Burlington, Nc 27217",-79.433796,36.106758
674,"1 River Camp Road, Piney Creek, Nc 28663",-81.3473371,36.5438936
675,"801 East 11th Street, Siler City, Nc 27344",-79.457112,35.733538
676,"2435 Randleman Road, Greensboro, Nc 27406",-79.8001519,36.035713
677,"111 Atlantic Avenue, Rocky Mount, Nc 27801",-77.791827,35.941239
678,"723 Durham Road, Roxboro, Nc 27573",-78.986579,36.382631
679,"205 South Memorial Drive, Greenville, Nc 27834",-77.3911756,35.6162034
680,"500 South George Street, Goldsboro, Nc 27530",-78.0021469,35.378416
681,"134 South Center Street, Mount Olive, Nc 28365",-78.068161,35.194806
682,"2146 Nc Highway 102 East, Ayden, Nc 28513",-77.3482441,35.4695049
683,"1480 Riverside Drive, Asheville, Nc 28804",-82.600792,35.628009
684,"1011 Liberty Road, Archdale, Nc 27263",-79.9481252,35.9229881
685,"1395 Charlotte Highway, Fairview, Nc 28730",-82.4079169,35.5231492
686,"1299 Charlotte Highway, Fairview, Nc 28730",-82.415676,35.523108
687,"1185 Charlotte Highway, Fairview, Nc 28730",-82.424301,35.5249359
688,"173 South Franklin Road, Mount Airy, Nc 27030",-80.633831,36.49955
689,"235 North Main Street, Sparta, Nc 28675",-81.124246,36.50729
690,"1105 East Green Drive, High Point, Nc 27260",-79.992459,35.954093
691,"4958 Elkin Highway, North Wilkesboro, Nc 28697",-81.0568154,36.2110031
692,"1370 Fairgrove Church Road, Conover, Nc 28613",-81.2633391,35.7057284
693,"103 Highlands Plaza, Highlands, Nc 28741",-83.2023473,35.0521647
694,"3131 South Nc 127 Highway, Hickory, Nc 28602",-81.3726126,35.6853701
695,"8290 Market Street, Wilmington, Nc 28411",-77.7891222,34.2995973
696,"805 Roland Avenue, Surf City, Nc 28445",-77.5517761,34.4332796
697,"455 West Salisbury Street, Asheboro, Nc 27203",-79.8201179,35.708353
698,"5400 Apex Peakway, Apex, Nc 27502",-78.8662106,35.7370102
699,"301 East Fairfield Road, High Point, Nc 27263",-79.978387,35.925314
700,"111 South Main Street, Catawba, Nc 28609",-81.0749549,35.7062314
701,"7225 Market Street, Wilmington, Nc 28411",-77.8181361,34.2737549
702,"601 Old Highway 64 West, Hayesville, Nc 28904",-83.8310429,35.035131
703,"2103 North Graham Street, Charlotte, Nc 28206",-80.8290076,35.2491887
704,"2612 East Bessemer Avenue, Greensboro, Nc 27405",-79.7523004,36.084882
705,"5083 Nc 704 Highway East, Sandy Ridge, Nc 27046",-80.100879,36.495176
706,"101 North English Street, Greensboro, Nc 27401",-79.7578853,36.0769435
707,"5001 Burlington Road, Greensboro, Nc 27405",-79.685011,36.088738
708,"1939 East Market Street, Greensboro, Nc 27401",-79.765111,36.074043
709,"6066 Nc 704 Highway East, Sandy Ridge, Nc 27046",-80.1009649,36.4714618
710,"2254 Nc 770 Highway, Sandy Ridge, Nc 27046",-80.053003,36.494335
711,"7413 Market Street, Wilmington, Nc 28411",-77.814342,34.2781173
712,"3534 Mount Holly Huntersville Road, Charlotte, Nc 28216",-80.9461396,35.3231187
713,"1122 East Morehead Street, Burlington, Nc 27215",-79.4304517,36.0825995
714,"5285 Us Highway 601, Salisbury, Nc 28147",-80.5018348,35.7302296
715,"3510 Stokes Ferry Road, Salisbury, Nc 28146",-80.430657,35.632024
716,"3785 Bringle Ferry Road, Salisbury, Nc 28146",-80.4117819,35.6520727
717,"2048 South Nc Highway 119, Mebane, Nc 27302",-79.3316008,36.0418812
718,"721 South Anderson Boulevard, Topsail Beach, Nc 28445",-77.6286061,34.3663539
719,"555 Dabney Drive, Henderson, Nc 27536",-78.422638,36.324996
720,"25 Jr Road, Selma, Nc 27576",-78.2839893,35.535037
721,"71 Sparta Road, North Wilkesboro, Nc 28659",-81.1500115,36.1853422
722,"800 Carolina Avenue, Washington, Nc 27889",-77.0590154,35.5529568
723,"20601 Wagram Road, Laurinburg, Nc 28352",-79.3997848,34.8409796
724,"2890 Reynolda Road, Winston Salem, Nc 27106",-80.3006293,36.1427232
725,"4905 Guy Road, Clayton, Nc 27520",-78.521797,35.677042
726,"716 South Brightleaf Boulevard, Smithfield, Nc 27577",-78.348108,35.5011362
727,"4621 Hillsborough Road, Durham, Nc 27705",-78.9792006,36.0318768
728,"607 East Boulevard, Williamston, Nc 27892",-77.0495768,35.8453319
729,"601 North Carolina Highway 54 West, Chapel Hill, Nc 27516",-79.1223713,35.9245138
730,"9510 Reynolda Road, Tobaccoville, Nc 27050",-80.422145,36.208597
731,"5595 Shatalon Drive, Winston Salem, Nc 27106",-80.2904229,36.1699198
732,"2303 North Church Street, Greensboro, Nc 27405",-79.781474,36.10431
733,"1245 West Academy Street, Winston Salem, Nc 27103",-80.259399,36.0848129
734,"600 Church Street North, Concord, Nc 28025",-80.595909,35.426546
735,"305 West Main Street, Gibsonville, Nc 27249",-79.544991,36.106695
736,"1930 North Memorial Drive, Greenville, Nc 27834",-77.368933,35.6436319
737,"101 Market Place Drive, North Wilkesboro, Nc 28659",-81.1504574,36.1843457
738,"205 South Memorial Drive, Greenville, Nc 27834",-77.3911756,35.6162034
739,"1028 Cedar Street, New Bern, Nc 28560",-77.0516619,35.112119
740,"2901 Waughtown Street, Winston Salem, Nc 27107",-80.1831068,36.0768516
741,"1100 Broad Street Extension, Oriental, Nc 28571",-76.691275,35.035812
742,"2435 Randleman Road, Greensboro, Nc 27406",-79.8001519,36.035713
743,"2309 Simpkins Road, Raleigh, Nc 27603",-78.677358,35.701791
744,"1304 West Vernon Avenue, Kinston, Nc 28504",-77.5995272,35.2693097
745,"559 Akron Drive, Winston Salem, Nc 27105",-80.2365559,36.140005
746,"2100 Sharpe Road, Greensboro, Nc 27406",-79.729351,36.048544
747,"7309 South Virginia Dare Trail, Nags Head, Nc 27959",-75.5968925,35.9081542
748,"1180 Highway 24 East, Newport, Nc 28570",-76.860619,34.7347895
749,"6732 Main Street, Saratoga, Nc 27873",-77.7802729,35.656504
750,"3799 Highway 73 East, Concord, Nc 28025",-80.5136075,35.4153357
751,"5450 Davis Road, Winston Salem, Nc 27105",-80.2025139,36.184177
752,"800 Martin Luther King Jr. Boulevard, Chapel Hill, Nc 27514",-79.053539,35.925328
753,"225 South Broad Street, Winston Salem, Nc 27101",-80.2506598,36.0908523
754,"2031 Sugar Hill Road, Marion, Nc 28752",-82.0252808,35.6583056
755,"1912 Trent Boulevard, Suite B, New Bern, Nc 28560",-77.0701529,35.1049498
756,"1972 Haywood Road, Hendersonville, Nc 28791",-82.485685,35.335992
757,"1038 East Court Street, Marion, Nc 28752",-81.9936463,35.6917892
758,"723 Durham Road, Roxboro, Nc 27573",-78.986579,36.382631
759,"100 West Woodcroft Parkway, Durham, Nc 27713",-78.9269771,35.9238545
760,"500 North Main Street, Marion, Nc 28752",-82.0144858,35.6895313
761,"735 Sand Pit Road, Aberdeen, Nc 28315",-79.474309,35.131187
762,"24 Us Highway 221, Sparta, Nc 28675",-81.163141,36.528338
763,"2108 Norwood Street Swsouthwest, Lenoir, Nc 28645",-81.516146,35.875878
764,"611 North Bickett Boulevard, Louisburg, Nc 27549",-78.292586,36.105408
765,"211 River Street, Newland, Nc 28657",-81.9264452,36.0829247
766,"806 South Main Street, Louisburg, Nc 27549",-78.3057232,36.0923175
767,"2804 Virginia Road, Tyner, Nc 27980",-76.656085,36.226508
768,"208 East Church Street, Lewiston, Nc 27849",-77.171098,36.1230249
769,"7213 South Virginia Dare Trail, Nags Head, Nc 27959",-75.5969609,35.9104529
770,"5488 Durham Road, Roxboro, Nc 27574",-78.9731279,36.3182485
771,"1124 North Main Street, Roxboro, Nc 27573",-78.971151,36.411269
772,"454 City Lake Road, Roxboro, Nc 27574",-79.005953,36.42988
773,"416 Chub Lake Street, Roxboro, Nc 27573",-78.987955,36.399276
774,"714 North White Street, Wake Forest, Nc 27587",-78.500859,35.987386
775,"2694 Us Highway 21 South, Sparta, Nc 28675",-81.086614,36.481405
776,"211 Main Street, Rowland, Nc 28383",-79.2941327,34.5378685
777,"764 Fairview Road, Asheville, Nc 28803",-82.5120118,35.5650763
778,"260 Palmer Street, Franklin, Nc 28734",-83.3789186,35.1814685
779,"231 Montford Avenue, Asheville, Nc 28801",-82.5645397,35.602823
780,"482 Deaverview Road, Asheville, Nc 28806",-82.628549,35.582603
781,"4601 Sunset Road, Charlotte, Nc 28216",-80.8496264,35.3085679
782,"2 Sweeten Creek Road, Asheville, Nc 28803",-82.538938,35.566142
783,"3623 Martin Luther King Junior Drive, Lumberton, Nc 28358",-79.0468665,34.5820592
784,"41 Kenric Drive, Lumberton, Nc 28358",-79.0818774,34.6107725
785,"2724 West Boulevard, Charlotte, Nc 28208",-80.909364,35.210352
786,"3100 Martin Luther King Junior Drive, Lumberton, Nc 28358",-79.036787,34.597703
787,"6085 Raeford Road, Suite 108, Fayetteville, Nc 28304",-78.9797849,35.0437387
788,"435 East Andrews Avenue, Henderson, Nc 27536",-78.3941383,36.3280223
789,"6283 Us Highway 301 South, Hope Mills, Nc 28348",-78.9464606,34.9264605
790,"814 Ocean Trail, Corolla, Nc 27927",-75.817335,36.329358
791,"2624 Sam Wilson Road, Charlotte, Nc 28214",-80.9820261,35.2556995
792,"53124 Highway 12, Frisco, Nc 27936",-75.6202635,35.2395115
793,"1725 Statesville Avenue, Charlotte, Nc 28206",-80.836725,35.246571
794,"1341 Colington Road, Kill Devil Hills, Nc 27948",-75.6901063,36.0147742
795,"12810 South Tryon Street, Charlotte, Nc 28273",-80.9879831,35.1049568
796,"3948 Caratoke Highway, Barco, Nc 27917",-75.9771814,36.3868178
797,"3003 Wilkesboro Highway, Statesville, Nc 28625",-80.9400297,35.8693313
798,"8221 Us Highway 117 South, Rocky Point, Nc 28457",-77.880226,34.4391058
799,"7740 Nc Highway 11, Willard, Nc 28478",-77.993843,34.689642
800,"801 West Lee Street, Greensboro, Nc 27403",-79.8305645,36.0601976
801,"13493 Nc Highway 210, Rocky Point, Nc 28457",-77.8774586,34.4402683
802,"23781 Highway 12, Rodanthe, Nc 27968",-75.464899,35.593983
803,"9716 South Boulevard, Charlotte, Nc 28273",-80.8815879,35.105356
804,"1030 Salisbury Road, Statesville, Nc 28677",-80.86592,35.7751145
805,"1805 Sapona Road, Fayetteville, Nc 28312",-78.844088,35.0394239
806,"5716 South Nc 41 Highway, Wallace, Nc 28466",-77.9701506,34.7412915
807,"401 Old Shelby Road, Morganton, Nc 28655",-81.6723713,35.7233595
808,"2225 Wilkesboro Highway, Statesville, Nc 28625",-80.9192829,35.828617
809,"1340 National Highway, Thomasville, Nc 27360",-80.057834,35.917797
810,"3501 North Main Street, Hope Mills, Nc 28348",-78.9501414,34.9765172
811,"2159 Old Mountain Road, Statesville, Nc 28625",-81.004842,35.78302
812,"1402 North Center Street, Statesville, Nc 28625",-80.9058047,35.8020672
813,"126 West Church Street, Lewiston Woodville, Nc 27849",-77.177172,36.123551
814,"200 North Broad Street, Edenton, Nc 27932",-76.6078076,36.0618828
815,"134 South Center Street, Mount Olive, Nc 28365",-78.068161,35.194806
816,"3426 Wayne Memorial Drive, Goldsboro, Nc 27534",-77.9378052,35.4155166
817,"1901 North William Street, Suite B, Goldsboro, Nc 27530",-77.9834087,35.40481
818,"401 South Church Street, Mount Olive, Nc 28365",-78.067702,35.191059
819,"111 East Hanrahan Road, Ayden, Nc 28513",-77.4343642,35.4097547
820,"2049 Us Highway 117 South, Goldsboro, Nc 27530",-78.0201631,35.3492836
821,"500 South George Street, Goldsboro, Nc 27530",-78.0021469,35.378416
822,"1160 Copperfield Boulevard Northeast, Concord, Nc 28025",-80.5853869,35.4629241
823,"5001 Bragg Boulevard, Fayetteville, Nc 28303",-78.955528,35.093093
824,"1251 Norwood Street Southwest, Lenoir, Nc 28645",-81.525445,35.892401
825,"223 East Main Street, Yanceyville, Nc 27379",-79.3319579,36.4043769
826,"1159 East Caswell Street, Wadesboro, Nc 28170",-80.0571561,34.963936
827,"604 Camden Road, Wadesboro, Nc 28170",-80.081065,34.9602444
828,"10022 University City Boulevard, Charlotte, Nc 28213",-80.7161573,35.3093824
829,"83 Plaza Loop, Canton, Nc 28716",-82.8630612,35.5341167
830,"9249 Lawyers Road, Mint Hill, Nc 28227",-80.687366,35.186115
831,"1010 Easley Road, Walnut Cove, Nc 27052",-80.166749,36.276989
832,"1900 Milton Road, Charlotte, Nc 28215",-80.7528734,35.2463412
833,"1616 East Raleigh Boulevard, Rocky Mount, Nc 27801",-77.769976,35.94656
834,"702 Branch Street, Rocky Mount, Nc 27801",-77.7926917,35.9335762
835,"1101 Linden Avenue, Oxford, Nc 27565",-78.6291541,35.7850623
836,"1915 Milton Road, Charlotte, Nc 28215",-80.752195,35.246234
837,"5632 Farm Pond Lane, Charlotte, Nc 28212",-80.7391896,35.2037906
838,"712 South Alston Avenue, Durham, Nc 27701",-78.8920432,35.9796542
839,"2200 West Cumberland Street, Dunn, Nc 28334",-78.6351423,35.3226075
840,"901 Eastway Drive, Charlotte, Nc 28205",-80.7804839,35.2446871
841,"2101 Eastway Drive, Charlotte, Nc 28205",-80.775147,35.227687
842,"1156 Nc Highway 66 South, Kernersville, Nc 27284",-80.0627353,36.088632
843,"1050 Old Lenoir Road, Hickory, Nc 28601",-81.362272,35.747033
844,"1314 North Fulton Street, Raeford, Nc 28376",-79.228064,34.994239
845,"5280 High Point Road, Kernersville, Nc 27284",-80.0619915,36.0207154
846,"644 West Prospect Avenue, Raeford, Nc 28376",-79.238136,34.984872
847,"604 East Grimes Avenue, High Point, Nc 27260",-79.997111,35.9494582
848,"810 South Main Street, High Point, Nc 27260",-80.0041326,35.94698
849,"5137 Old Rural Hall Road, Winston Salem, Nc 27105",-80.232358,36.1637522
850,"2921 East Kivett Drive, Suite 101, High Point, Nc 27260",-79.8979395,35.9622825
851,"2700 East Lexington Avenue, High Point, Nc 27262",-79.9797937,35.9800072
852,"612 Waughtown Street, Winston Salem, Nc 27107",-80.2263149,36.0697995
853,"2609 North Liberty Street, Winston Salem, Nc 27105",-80.232731,36.123333
854,"1796 Gum Branch Road, Jacksonville, Nc 28540",-77.4277577,34.7869514
855,"1006 Leonard Avenue, High Point, Nc 27260",-79.993937,35.958903
856,"1804 Wade Place, High Point, Nc 27260",-79.9779606,35.9595625
857,"907 East Green Drive, High Point, Nc 27260",-79.9943097,35.9540923
858,"4848 South Nc Highway 54, Graham, Nc 27253",-79.2921129,35.9922987
859,"602 Jones Ferry Road, Suite L2, Carrboro, Nc 27510",-79.0891651,35.9068411
860,"1334 North Fayetteville Street # A, Asheboro, Nc 27203",-79.807346,35.729998
861,"317 Liberty Road, Archdale, Nc 27263",-79.9666,35.915722
862,"920 South Main Street, Lillington, Nc 27546",-78.817314,35.397081
863,"308 Depot Street, Roxboro, Nc 27573",-78.978154,36.39364
864,"1482 North Carolina Highway 71 North, Maxton, Nc 28364",-79.335703,34.769281
865,"155 South Mckinley Street, Coats, Nc 27521",-78.671854,35.4056179
866,"901 Waughtown Street, Winston Salem, Nc 27107",-80.220283,36.069707
867,"595 East Central Avenue, Asheboro, Nc 27203",-79.795389,35.75086
868,"210 East Trade Street A30, Charlotte, Nc 28202",-80.8424884,35.2253172
869,"4609 Cherry Street, Winston Salem, Nc 27105",-80.263785,36.153047
870,"1960 North Fayetteville Street, Asheboro, Nc 27203",-79.804579,35.753205
871,"151 Westwood Shopping Center, Fayetteville, Nc 28302",-78.9521277,35.0661001
872,"432 Cumberland Street, Fayetteville, Nc 28301",-78.8835919,35.066297
873,"17160 Old Lumberton Road, Laurinburg, Nc 28352",-79.436912,34.775335
874,"518 South Main Street, Randleman, Nc 27317",-79.803896,35.811363
875,"2528 South Tryon Street, Charlotte, Nc 28203",-80.8694438,35.206145
876,"217 West 30th Street, Charlotte, Nc 28206",-80.817745,35.249925
877,"4100 The Plaza, Charlotte, Nc 28205",-80.785831,35.247275
878,"2417 North Tryon Street, Suite E, Charlotte, Nc 28206",-80.8185534,35.2471987
879,"600 Ward Boulevard, Wilson, Nc 27893",-77.931876,35.713727
880,"2713 South Tryon Street, Charlotte, Nc 28203",-80.8701369,35.2036891
881,"1832 Shamrock Drive, Charlotte, Nc 28205",-80.793002,35.235482
882,"2601a Tuckaseegee Road, Charlotte, Nc 28208",-80.8756068,35.238151
883,"1110 Goldsboro Street Southwest, Wilson, Nc 27893",-77.924508,35.714953
884,"7053 Us Highway 64 East, Knightdale, Nc 27545",-78.4695586,35.7666859
885,"1489 Mount Jefferson Road, West Jefferson, Nc 28694",-81.4811674,36.3893178
886,"1610 Us Highway 421 North, Wilmington, Nc 28401",-77.9565539,34.2528145
887,"589 Brevard Road, Asheville, Nc 28806",-82.6005306,35.5533249
888,"1902 Old Haywood Road, Asheville, Nc 28806",-82.6327464,35.56485
889,"276 North Carolina Highway 9, Lake Lure, Nc 28746",-82.1985669,35.4108013
890,"1050 Highway 65, Rural Hall, Nc 27045",-80.275094,36.2434695
891,"1318 John Small Avenue, Washington, Nc 27889",-77.0306978,35.5471265
892,"702 Ann Street, Wilmington, Nc 28401",-77.940014,34.232069
893,"505 Joe Brown Highway North, Chadbourn, Nc 28431",-78.8276402,34.3393881
894,"2710 Roberts Avenue, Lumberton, Nc 28358",-79.0093939,34.6454049
895,"748 North State Street, Yadkinville, Nc 27055",-80.6636958,36.1417853
896,"2010 West Mountain Street, Kernersville, Nc 27284",-80.1181875,36.1337984
897,"4530 Tynecastle Highway, Sugar Mountain, Nc 28604",-81.8399429,36.1193776
898,"2655 Memorial Highway, Lake Lure, Nc 28746",-82.2270696,35.4306777
899,"250 North Carolina Highway 42, Goldston, Nc 27252",-79.350807,35.52326
900,"1402 Heartland Drive, Kernersville, Nc 27284",-80.0652607,36.0867208
901,"710 South Alston Avenue, Durham, Nc 27704",-78.8921151,35.9798191
902,"1004 South Chatham Avenue, Siler City, Nc 27344",-79.456632,35.711676
903,"1869 Hendersonville Road, Asheville, Nc 28803",-82.5223674,35.499931
904,"324 West Geer Street, Durham, Nc 27701",-78.8992006,36.004007
905,"518 East Trinity Avenue, Durham, Nc 27702",-78.8859582,36.0069027
906,"901 Smokey Park Highway, Candler, Nc 28715",-82.6564733,35.54754
907,"1 New Clyde Highway, Canton, Nc 28716",-82.8504077,35.5309508
908,"5302 Carolina Beach Road, Wilmington, Nc 28401",-77.8963565,34.1424508
909,"162 Park Street, Canton, Nc 28716",-82.847141,35.531399
910,"1672 Nc Highway 96, Franklinton, Nc 27525",-78.5511498,36.1067462
911,"559 North Raleigh Street, Suite G, Angier, Nc 27501",-78.7415969,35.5154259
912,"2051 South Main Street, Goldston, Nc 27252",-79.327759,35.592747
913,"470 Grove Street, Fayetteville, Nc 28301",-78.8677347,35.0537264
914,"211 Rowan Street, Fayetteville, Nc 28301",-78.87954,35.057759
915,"110 West 3rd Street, Pembroke, Nc 28372",-79.192881,34.6788049
916,"203 Beaver Creek School Road, West Jefferson, Nc 28694",-81.490143,36.377924
917,"60 Ashemont Drive, West Jefferson, Nc 28694",-81.488625,36.380857
918,"7590 Philippi Church Road, Raeford, Nc 28376",-79.0662485,34.991293
919,"7604 Knightdale Boulevard, Knightdale, Nc 27545",-78.4740566,35.7987317
920,"3094 George Ii Highway, Southport, Nc 28461",-78.068095,34.030487
